angle,curLapTime,damage,distFromStart,distRaced,fuel,gear,lastLapTime,opponents,racePos,rpm,speedX,speedY,speedZ,track,trackPos,wheelSpinVel,z,focus,x,y,roll,pitch,yaw,speedGlobalX,speedGlobalY,accel,brake,gas,clutch,gear,steer,focus,meta[0.5014230807405572],[],[],[],[],[],[0.2857142857142857],[],[],[],[0.09424779999999999],[0.5000005143366667],[0.5008333341905611],[],"[[0.041668699999999996, 0.0430461, 0.047526849999999995, 0.05719249999999999, 0.0788785, 0.11234000000000001, 0.144325, 0.20403749999999998, 0.358036, 1.005, 0.2543275, 0.1105665, 0.0748105, 0.057811999999999995, 0.04123585, 0.030726399999999997, 0.026067999999999997, 0.02393615, 0.02333315]]",[0.48333185],"[[0.5, 0.5, 0.5, 0.5]]",[],"[[-90, -45, 0, 45, 90]]",[],[],[],[],[],[],[],[0.1],[0],[0.55],[0],[0.2857142857142857],[0.5],"[[-90, -45, 0, 45, 90]]",[0]
[0.5014230807405572],[],[],[],[],[],[0.2857142857142857],[],[],[],[0.0957884],[0.5000005143366667],[0.5008333341905611],[],"[[0.041668699999999996, 0.0430461, 0.047526849999999995, 0.05719249999999999, 0.0788785, 0.11234000000000001, 0.144325, 0.20403749999999998, 0.358036, 1.005, 0.2543275, 0.1105665, 0.0748105, 0.057811999999999995, 0.04123585, 0.030726399999999997, 0.026067999999999997, 0.02393615, 0.02333315]]",[0.48333185],"[[0.5, 0.5, 0.5, 0.5]]",[],"[[-90, -45, 0, 45, 90]]",[],[],[],[],[],[],[],[8.326672684688674e-17],[0],[0.5],[0],[0.2857142857142857],[0.5],"[[-90, -45, 0, 45, 90]]",[0]
[0.5014230807405572],[],[],[],[],[],[0.2857142857142857],[],[],[],[0.0957802],[0.5000005143366667],[0.5008333341905611],[],"[[0.041668699999999996, 0.0430461, 0.047526849999999995, 0.05719249999999999, 0.0788785, 0.11234000000000001, 0.144325, 0.20403749999999998, 0.358036, 1.005, 0.2543275, 0.1105665, 0.0748105, 0.057811999999999995, 0.04123585, 0.030726399999999997, 0.026067999999999997, 0.02393615, 0.02333315]]",[0.48333185],"[[0.5, 0.5, 0.5, 0.5]]",[],"[[-90, -45, 0, 45, 90]]",[],[],[],[],[],[],[],[0],[0],[0.5],[0],[0.2857142857142857],[0.5],"[[-90, -45, 0, 45, 90]]",[0]
[0.5014230807405572],[],[],[],[],[],[0.2857142857142857],[],[],[],[0.095772],[0.5000005143366667],[0.5008333341905611],[],"[[0.041668699999999996, 0.0430461, 0.047526849999999995, 0.05719249999999999, 0.0788785, 0.11234000000000001, 0.144325, 0.20403749999999998, 0.358036, 1.005, 0.2543275, 0.1105665, 0.0748105, 0.057811999999999995, 0.04123585, 0.030726399999999997, 0.026067999999999997, 0.02393615, 0.02333315]]",[0.48333185],"[[0.5, 0.5, 0.5, 0.5]]",[],"[[-90, -45, 0, 45, 90]]",[],[],[],[],[],[],[],[0],[0],[0.5],[0],[0.2857142857142857],[0.5],"[[-90, -45, 0, 45, 90]]",[0]
[0.5014230807405572],[],[],[],[],[],[0.2857142857142857],[],[],[],[0.09576380000000001],[0.5000005143366667],[0.5008333341905611],[],"[[0.041668699999999996, 0.0430461, 0.047526849999999995, 0.05719249999999999, 0.0788785, 0.11234000000000001, 0.144325, 0.20403749999999998, 0.358036, 1.005, 0.2543275, 0.1105665, 0.0748105, 0.057811999999999995, 0.04123585, 0.030726399999999997, 0.026067999999999997, 0.02393615, 0.02333315]]",[0.48333185],"[[0.5, 0.5, 0.5, 0.5]]",[],"[[-90, -45, 0, 45, 90]]",[],[],[],[],[],[],[],[0],[0],[0.5],[0],[0.2857142857142857],[0.5],"[[-90, -45, 0, 45, 90]]",[0]
[0.5014230807405572],[],[],[],[],[],[0.2857142857142857],[],[],[],[0.0957557],[0.5000005143366667],[0.5008333341905611],[],"[[0.041668699999999996, 0.0430461, 0.047526849999999995, 0.05719249999999999, 0.0788785, 0.11234000000000001, 0.144325, 0.20403749999999998, 0.358036, 1.005, 0.2543275, 0.1105665, 0.0748105, 0.057811999999999995, 0.04123585, 0.030726399999999997, 0.026067999999999997, 0.02393615, 0.02333315]]",[0.48333185],"[[0.5, 0.5, 0.5, 0.5]]",[],"[[-90, -45, 0, 45, 90]]",[],[],[],[],[],[],[],[0],[0],[0.5],[0],[0.2857142857142857],[0.5],"[[-90, -45, 0, 45, 90]]",[0]
[0.5014230807405572],[],[],[],[],[],[0.2857142857142857],[],[],[],[0.0957476],[0.5000005143366667],[0.5008333341905611],[],"[[0.041668699999999996, 0.0430461, 0.047526849999999995, 0.05719249999999999, 0.0788785, 0.11234000000000001, 0.144325, 0.20403749999999998, 0.358036, 1.005, 0.2543275, 0.1105665, 0.0748105, 0.057811999999999995, 0.04123585, 0.030726399999999997, 0.026067999999999997, 0.02393615, 0.02333315]]",[0.48333185],"[[0.5, 0.5, 0.5, 0.5]]",[],"[[-90, -45, 0, 45, 90]]",[],[],[],[],[],[],[],[0],[0],[0.5],[0],[0.2857142857142857],[0.5],"[[-90, -45, 0, 45, 90]]",[0]
[0.5014230807405572],[],[],[],[],[],[0.2857142857142857],[],[],[],[0.0957396],[0.5000005143366667],[0.5008333341905611],[],"[[0.041668699999999996, 0.0430461, 0.047526849999999995, 0.05719249999999999, 0.0788785, 0.11234000000000001, 0.144325, 0.20403749999999998, 0.358036, 1.005, 0.2543275, 0.1105665, 0.0748105, 0.057811999999999995, 0.04123585, 0.030726399999999997, 0.026067999999999997, 0.02393615, 0.02333315]]",[0.48333185],"[[0.5, 0.5, 0.5, 0.5]]",[],"[[-90, -45, 0, 45, 90]]",[],[],[],[],[],[],[],[0],[0],[0.5],[0],[0.2857142857142857],[0.5],"[[-90, -45, 0, 45, 90]]",[0]
[0.5014230807405572],[],[],[],[],[],[0.2857142857142857],[],[],[],[0.0957316],[0.5000005143366667],[0.5008333341905611],[],"[[0.041668699999999996, 0.0430461, 0.047526849999999995, 0.05719249999999999, 0.0788785, 0.11234000000000001, 0.144325, 0.20403749999999998, 0.358036, 1.005, 0.2543275, 0.1105665, 0.0748105, 0.057811999999999995, 0.04123585, 0.030726399999999997, 0.026067999999999997, 0.02393615, 0.02333315]]",[0.48333185],"[[0.5, 0.5, 0.5, 0.5]]",[],"[[-90, -45, 0, 45, 90]]",[],[],[],[],[],[],[],[0],[0],[0.5],[0],[0.2857142857142857],[0.5],"[[-90, -45, 0, 45, 90]]",[0]
[0.5014230807405572],[],[],[],[],[],[0.2857142857142857],[],[],[],[0.0957237],[0.5000005143366667],[0.5008333341905611],[],"[[0.041668699999999996, 0.0430461, 0.047526849999999995, 0.05719249999999999, 0.0788785, 0.11234000000000001, 0.144325, 0.20403749999999998, 0.358036, 1.005, 0.2543275, 0.1105665, 0.0748105, 0.057811999999999995, 0.04123585, 0.030726399999999997, 0.026067999999999997, 0.02393615, 0.02333315]]",[0.48333185],"[[0.5, 0.5, 0.5, 0.5]]",[],"[[-90, -45, 0, 45, 90]]",[],[],[],[],[],[],[],[0],[0],[0.5],[0],[0.2857142857142857],[0.5],"[[-90, -45, 0, 45, 90]]",[0]
[0.5014230807405572],[],[],[],[],[],[0.2857142857142857],[],[],[],[0.0957158],[0.5000005143366667],[0.5008333341905611],[],"[[0.041668699999999996, 0.0430461, 0.047526849999999995, 0.05719249999999999, 0.0788785, 0.11234000000000001, 0.144325, 0.20403749999999998, 0.358036, 1.005, 0.2543275, 0.1105665, 0.0748105, 0.057811999999999995, 0.04123585, 0.030726399999999997, 0.026067999999999997, 0.02393615, 0.02333315]]",[0.48333185],"[[0.5, 0.5, 0.5, 0.5]]",[],"[[-90, -45, 0, 45, 90]]",[],[],[],[],[],[],[],[0],[0],[0.5],[0],[0.2857142857142857],[0.5],"[[-90, -45, 0, 45, 90]]",[0]
[0.5014230807405572],[],[],[],[],[],[0.2857142857142857],[],[],[],[0.095708],[0.5000005143366667],[0.5008333341905611],[],"[[0.041668699999999996, 0.0430461, 0.047526849999999995, 0.05719249999999999, 0.0788785, 0.11234000000000001, 0.144325, 0.20403749999999998, 0.358036, 1.005, 0.2543275, 0.1105665, 0.0748105, 0.057811999999999995, 0.04123585, 0.030726399999999997, 0.026067999999999997, 0.02393615, 0.02333315]]",[0.48333185],"[[0.5, 0.5, 0.5, 0.5]]",[],"[[-90, -45, 0, 45, 90]]",[],[],[],[],[],[],[],[0],[0],[0.5],[0],[0.2857142857142857],[0.5],"[[-90, -45, 0, 45, 90]]",[0]
[0.5014230807405572],[],[],[],[],[],[0.2857142857142857],[],[],[],[0.0957001],[0.5000005143366667],[0.5008333341905611],[],"[[0.041668699999999996, 0.0430461, 0.047526849999999995, 0.05719249999999999, 0.0788785, 0.11234000000000001, 0.144325, 0.20403749999999998, 0.358036, 1.005, 0.2543275, 0.1105665, 0.0748105, 0.057811999999999995, 0.04123585, 0.030726399999999997, 0.026067999999999997, 0.02393615, 0.02333315]]",[0.48333185],"[[0.5, 0.5, 0.5, 0.5]]",[],"[[-90, -45, 0, 45, 90]]",[],[],[],[],[],[],[],[0],[0],[0.5],[0],[0.2857142857142857],[0.5],"[[-90, -45, 0, 45, 90]]",[0]
[0.5014230807405572],[],[],[],[],[],[0.2857142857142857],[],[],[],[0.0956924],[0.5000005143366667],[0.5008333341905611],[],"[[0.041668699999999996, 0.0430461, 0.047526849999999995, 0.05719249999999999, 0.0788785, 0.11234000000000001, 0.144325, 0.20403749999999998, 0.358036, 1.005, 0.2543275, 0.1105665, 0.0748105, 0.057811999999999995, 0.04123585, 0.030726399999999997, 0.026067999999999997, 0.02393615, 0.02333315]]",[0.48333185],"[[0.5, 0.5, 0.5, 0.5]]",[],"[[-90, -45, 0, 45, 90]]",[],[],[],[],[],[],[],[0],[0],[0.5],[0],[0.2857142857142857],[0.5],"[[-90, -45, 0, 45, 90]]",[0]
[0.5014230807405572],[],[],[],[],[],[0.2857142857142857],[],[],[],[0.0956847],[0.5000005143366667],[0.5008333341905611],[],"[[0.041668699999999996, 0.0430461, 0.047526849999999995, 0.05719249999999999, 0.0788785, 0.11234000000000001, 0.144325, 0.20403749999999998, 0.358036, 1.005, 0.2543275, 0.1105665, 0.0748105, 0.057811999999999995, 0.04123585, 0.030726399999999997, 0.026067999999999997, 0.02393615, 0.02333315]]",[0.48333185],"[[0.5, 0.5, 0.5, 0.5]]",[],"[[-90, -45, 0, 45, 90]]",[],[],[],[],[],[],[],[0],[0],[0.5],[0],[0.2857142857142857],[0.5],"[[-90, -45, 0, 45, 90]]",[0]
[0.5014230807405572],[],[],[],[],[],[0.2857142857142857],[],[],[],[0.095677],[0.5000005143366667],[0.5008333341905611],[],"[[0.041668699999999996, 0.0430461, 0.047526849999999995, 0.05719249999999999, 0.0788785, 0.11234000000000001, 0.144325, 0.20403749999999998, 0.358036, 1.005, 0.2543275, 0.1105665, 0.0748105, 0.057811999999999995, 0.04123585, 0.030726399999999997, 0.026067999999999997, 0.02393615, 0.02333315]]",[0.48333185],"[[0.5, 0.5, 0.5, 0.5]]",[],"[[-90, -45, 0, 45, 90]]",[],[],[],[],[],[],[],[0],[0],[0.5],[0],[0.2857142857142857],[0.5],"[[-90, -45, 0, 45, 90]]",[0]
[0.5014230807405572],[],[],[],[],[],[0.2857142857142857],[],[],[],[0.0956693],[0.5000005143366667],[0.5008333341905611],[],"[[0.041668699999999996, 0.0430461, 0.047526849999999995, 0.05719249999999999, 0.0788785, 0.11234000000000001, 0.144325, 0.20403749999999998, 0.358036, 1.005, 0.2543275, 0.1105665, 0.0748105, 0.057811999999999995, 0.04123585, 0.030726399999999997, 0.026067999999999997, 0.02393615, 0.02333315]]",[0.48333185],"[[0.5, 0.5, 0.5, 0.5]]",[],"[[-90, -45, 0, 45, 90]]",[],[],[],[],[],[],[],[0],[0],[0.5],[0],[0.2857142857142857],[0.5],"[[-90, -45, 0, 45, 90]]",[0]
[0.5014230807405572],[],[],[],[],[],[0.2857142857142857],[],[],[],[0.0956617],[0.5000005143366667],[0.5008333341905611],[],"[[0.041668699999999996, 0.0430461, 0.047526849999999995, 0.05719249999999999, 0.0788785, 0.11234000000000001, 0.144325, 0.20403749999999998, 0.358036, 1.005, 0.2543275, 0.1105665, 0.0748105, 0.057811999999999995, 0.04123585, 0.030726399999999997, 0.026067999999999997, 0.02393615, 0.02333315]]",[0.48333185],"[[0.5, 0.5, 0.5, 0.5]]",[],"[[-90, -45, 0, 45, 90]]",[],[],[],[],[],[],[],[0],[0],[0.5],[0],[0.2857142857142857],[0.5],"[[-90, -45, 0, 45, 90]]",[0]
[0.5014230807405572],[],[],[],[],[],[0.2857142857142857],[],[],[],[0.09565420000000001],[0.5000005143366667],[0.5008333341905611],[],"[[0.041668699999999996, 0.0430461, 0.047526849999999995, 0.05719249999999999, 0.0788785, 0.11234000000000001, 0.144325, 0.20403749999999998, 0.358036, 1.005, 0.2543275, 0.1105665, 0.0748105, 0.057811999999999995, 0.04123585, 0.030726399999999997, 0.026067999999999997, 0.02393615, 0.02333315]]",[0.48333185],"[[0.5, 0.5, 0.5, 0.5]]",[],"[[-90, -45, 0, 45, 90]]",[],[],[],[],[],[],[],[0],[0],[0.5],[0],[0.2857142857142857],[0.5],"[[-90, -45, 0, 45, 90]]",[0]
[0.5014230807405572],[],[],[],[],[],[0.2857142857142857],[],[],[],[0.0956466],[0.5000005143366667],[0.5008333341905611],[],"[[0.041668699999999996, 0.0430461, 0.047526849999999995, 0.05719249999999999, 0.0788785, 0.11234000000000001, 0.144325, 0.20403749999999998, 0.358036, 1.005, 0.2543275, 0.1105665, 0.0748105, 0.057811999999999995, 0.04123585, 0.030726399999999997, 0.026067999999999997, 0.02393615, 0.02333315]]",[0.48333185],"[[0.5, 0.5, 0.5, 0.5]]",[],"[[-90, -45, 0, 45, 90]]",[],[],[],[],[],[],[],[0],[0],[0.5],[0],[0.2857142857142857],[0.5],"[[-90, -45, 0, 45, 90]]",[0]
[0.5014230807405572],[],[],[],[],[],[0.2857142857142857],[],[],[],[0.09563920000000001],[0.5000005143366667],[0.5008333341905611],[],"[[0.041668699999999996, 0.0430461, 0.047526849999999995, 0.05719249999999999, 0.0788785, 0.11234000000000001, 0.144325, 0.20403749999999998, 0.358036, 1.005, 0.2543275, 0.1105665, 0.0748105, 0.057811999999999995, 0.04123585, 0.030726399999999997, 0.026067999999999997, 0.02393615, 0.02333315]]",[0.48333185],"[[0.5, 0.5, 0.5, 0.5]]",[],"[[-90, -45, 0, 45, 90]]",[],[],[],[],[],[],[],[0],[0],[0.5],[0],[0.2857142857142857],[0.5],"[[-90, -45, 0, 45, 90]]",[0]
[0.5014230807405572],[],[],[],[],[],[0.2857142857142857],[],[],[],[0.0956317],[0.5000005143366667],[0.5008333341905611],[],"[[0.041668699999999996, 0.0430461, 0.047526849999999995, 0.05719249999999999, 0.0788785, 0.11234000000000001, 0.144325, 0.20403749999999998, 0.358036, 1.005, 0.2543275, 0.1105665, 0.0748105, 0.057811999999999995, 0.04123585, 0.030726399999999997, 0.026067999999999997, 0.02393615, 0.02333315]]",[0.48333185],"[[0.5, 0.5, 0.5, 0.5]]",[],"[[-90, -45, 0, 45, 90]]",[],[],[],[],[],[],[],[0],[0],[0.5],[0],[0.2857142857142857],[0.5],"[[-90, -45, 0, 45, 90]]",[0]
[0.5014230807405572],[],[],[],[],[],[0.2857142857142857],[],[],[],[0.09562430000000001],[0.5000005143366667],[0.5008333341905611],[],"[[0.041668699999999996, 0.0430461, 0.047526849999999995, 0.05719249999999999, 0.0788785, 0.11234000000000001, 0.144325, 0.20403749999999998, 0.358036, 1.005, 0.2543275, 0.1105665, 0.0748105, 0.057811999999999995, 0.04123585, 0.030726399999999997, 0.026067999999999997, 0.02393615, 0.02333315]]",[0.48333185],"[[0.5, 0.5, 0.5, 0.5]]",[],"[[-90, -45, 0, 45, 90]]",[],[],[],[],[],[],[],[0],[0],[0.5],[0],[0.2857142857142857],[0.5],"[[-90, -45, 0, 45, 90]]",[0]
[0.5014230807405572],[],[],[],[],[],[0.2857142857142857],[],[],[],[0.095617],[0.5000005143366667],[0.5008333341905611],[],"[[0.041668699999999996, 0.0430461, 0.047526849999999995, 0.05719249999999999, 0.0788785, 0.11234000000000001, 0.144325, 0.20403749999999998, 0.358036, 1.005, 0.2543275, 0.1105665, 0.0748105, 0.057811999999999995, 0.04123585, 0.030726399999999997, 0.026067999999999997, 0.02393615, 0.02333315]]",[0.48333185],"[[0.5, 0.5, 0.5, 0.5]]",[],"[[-90, -45, 0, 45, 90]]",[],[],[],[],[],[],[],[0],[0],[0.5],[0],[0.2857142857142857],[0.5],"[[-90, -45, 0, 45, 90]]",[0]
[0.5014230807405572],[],[],[],[],[],[0.2857142857142857],[],[],[],[0.0956096],[0.5000005143366667],[0.5008333341905611],[],"[[0.041668699999999996, 0.0430461, 0.047526849999999995, 0.05719249999999999, 0.0788785, 0.11234000000000001, 0.144325, 0.20403749999999998, 0.358036, 1.005, 0.2543275, 0.1105665, 0.0748105, 0.057811999999999995, 0.04123585, 0.030726399999999997, 0.026067999999999997, 0.02393615, 0.02333315]]",[0.48333185],"[[0.5, 0.5, 0.5, 0.5]]",[],"[[-90, -45, 0, 45, 90]]",[],[],[],[],[],[],[],[0],[0],[0.5],[0],[0.2857142857142857],[0.5],"[[-90, -45, 0, 45, 90]]",[0]
[0.5014230807405572],[],[],[],[],[],[0.2857142857142857],[],[],[],[0.0956024],[0.5000005143366667],[0.5008333341905611],[],"[[0.041668699999999996, 0.0430461, 0.047526849999999995, 0.05719249999999999, 0.0788785, 0.11234000000000001, 0.144325, 0.20403749999999998, 0.358036, 1.005, 0.2543275, 0.1105665, 0.0748105, 0.057811999999999995, 0.04123585, 0.030726399999999997, 0.026067999999999997, 0.02393615, 0.02333315]]",[0.48333185],"[[0.5, 0.5, 0.5, 0.5]]",[],"[[-90, -45, 0, 45, 90]]",[],[],[],[],[],[],[],[0],[0],[0.5],[0],[0.2857142857142857],[0.5],"[[-90, -45, 0, 45, 90]]",[0]
[0.5014230807405572],[],[],[],[],[],[0.2857142857142857],[],[],[],[0.0955951],[0.5000005143366667],[0.5008333341905611],[],"[[0.041668699999999996, 0.0430461, 0.047526849999999995, 0.05719249999999999, 0.0788785, 0.11234000000000001, 0.144325, 0.20403749999999998, 0.358036, 1.005, 0.2543275, 0.1105665, 0.0748105, 0.057811999999999995, 0.04123585, 0.030726399999999997, 0.026067999999999997, 0.02393615, 0.02333315]]",[0.48333185],"[[0.5, 0.5, 0.5, 0.5]]",[],"[[-90, -45, 0, 45, 90]]",[],[],[],[],[],[],[],[0],[0],[0.5],[0],[0.2857142857142857],[0.5],"[[-90, -45, 0, 45, 90]]",[0]
[0.5014230807405572],[],[],[],[],[],[0.2857142857142857],[],[],[],[0.0955879],[0.5000005143366667],[0.5008333341905611],[],"[[0.041668699999999996, 0.0430461, 0.047526849999999995, 0.05719249999999999, 0.0788785, 0.11234000000000001, 0.144325, 0.20403749999999998, 0.358036, 1.005, 0.2543275, 0.1105665, 0.0748105, 0.057811999999999995, 0.04123585, 0.030726399999999997, 0.026067999999999997, 0.02393615, 0.02333315]]",[0.48333185],"[[0.5, 0.5, 0.5, 0.5]]",[],"[[-90, -45, 0, 45, 90]]",[],[],[],[],[],[],[],[0],[0],[0.5],[0],[0.2857142857142857],[0.5],"[[-90, -45, 0, 45, 90]]",[0]
[0.5014230807405572],[],[],[],[],[],[0.2857142857142857],[],[],[],[0.0955807],[0.5000005143366667],[0.5008333341905611],[],"[[0.041668699999999996, 0.0430461, 0.047526849999999995, 0.05719249999999999, 0.0788785, 0.11234000000000001, 0.144325, 0.20403749999999998, 0.358036, 1.005, 0.2543275, 0.1105665, 0.0748105, 0.057811999999999995, 0.04123585, 0.030726399999999997, 0.026067999999999997, 0.02393615, 0.02333315]]",[0.48333185],"[[0.5, 0.5, 0.5, 0.5]]",[],"[[-90, -45, 0, 45, 90]]",[],[],[],[],[],[],[],[0],[0],[0.5],[0],[0.2857142857142857],[0.5],"[[-90, -45, 0, 45, 90]]",[0]
[0.5014230807405572],[],[],[],[],[],[0.2857142857142857],[],[],[],[0.0955736],[0.5000005143366667],[0.5008333341905611],[],"[[0.041668699999999996, 0.0430461, 0.047526849999999995, 0.05719249999999999, 0.0788785, 0.11234000000000001, 0.144325, 0.20403749999999998, 0.358036, 1.005, 0.2543275, 0.1105665, 0.0748105, 0.057811999999999995, 0.04123585, 0.030726399999999997, 0.026067999999999997, 0.02393615, 0.02333315]]",[0.48333185],"[[0.5, 0.5, 0.5, 0.5]]",[],"[[-90, -45, 0, 45, 90]]",[],[],[],[],[],[],[],[0],[0],[0.5],[0],[0.2857142857142857],[0.5],"[[-90, -45, 0, 45, 90]]",[0]
[0.5014230807405572],[],[],[],[],[],[0.2857142857142857],[],[],[],[0.0955665],[0.5000005143366667],[0.5008333341905611],[],"[[0.041668699999999996, 0.0430461, 0.047526849999999995, 0.05719249999999999, 0.0788785, 0.11234000000000001, 0.144325, 0.20403749999999998, 0.358036, 1.005, 0.2543275, 0.1105665, 0.0748105, 0.057811999999999995, 0.04123585, 0.030726399999999997, 0.026067999999999997, 0.02393615, 0.02333315]]",[0.48333185],"[[0.5, 0.5, 0.5, 0.5]]",[],"[[-90, -45, 0, 45, 90]]",[],[],[],[],[],[],[],[0],[0],[0.5],[0],[0.2857142857142857],[0.5],"[[-90, -45, 0, 45, 90]]",[0]
[0.5014230807405572],[],[],[],[],[],[0.2857142857142857],[],[],[],[0.0955595],[0.5000005143366667],[0.5008333341905611],[],"[[0.041668699999999996, 0.0430461, 0.047526849999999995, 0.05719249999999999, 0.0788785, 0.11234000000000001, 0.144325, 0.20403749999999998, 0.358036, 1.005, 0.2543275, 0.1105665, 0.0748105, 0.057811999999999995, 0.04123585, 0.030726399999999997, 0.026067999999999997, 0.02393615, 0.02333315]]",[0.48333185],"[[0.5, 0.5, 0.5, 0.5]]",[],"[[-90, -45, 0, 45, 90]]",[],[],[],[],[],[],[],[0],[0],[0.5],[0],[0.2857142857142857],[0.5],"[[-90, -45, 0, 45, 90]]",[0]
[0.5014230807405572],[],[],[],[],[],[0.2857142857142857],[],[],[],[0.0955525],[0.5000005143366667],[0.5008333341905611],[],"[[0.041668699999999996, 0.0430461, 0.047526849999999995, 0.05719249999999999, 0.0788785, 0.11234000000000001, 0.144325, 0.20403749999999998, 0.358036, 1.005, 0.2543275, 0.1105665, 0.0748105, 0.057811999999999995, 0.04123585, 0.030726399999999997, 0.026067999999999997, 0.02393615, 0.02333315]]",[0.48333185],"[[0.5, 0.5, 0.5, 0.5]]",[],"[[-90, -45, 0, 45, 90]]",[],[],[],[],[],[],[],[0],[0],[0.5],[0],[0.2857142857142857],[0.5],"[[-90, -45, 0, 45, 90]]",[0]
[0.5014230807405572],[],[],[],[],[],[0.2857142857142857],[],[],[],[0.0955455],[0.5000005143366667],[0.5008333341905611],[],"[[0.041668699999999996, 0.0430461, 0.047526849999999995, 0.05719249999999999, 0.0788785, 0.11234000000000001, 0.144325, 0.20403749999999998, 0.358036, 1.005, 0.2543275, 0.1105665, 0.0748105, 0.057811999999999995, 0.04123585, 0.030726399999999997, 0.026067999999999997, 0.02393615, 0.02333315]]",[0.48333185],"[[0.5, 0.5, 0.5, 0.5]]",[],"[[-90, -45, 0, 45, 90]]",[],[],[],[],[],[],[],[0],[0],[0.5],[0],[0.2857142857142857],[0.5],"[[-90, -45, 0, 45, 90]]",[0]
[0.5014230807405572],[],[],[],[],[],[0.2857142857142857],[],[],[],[0.0955386],[0.5000005143366667],[0.5008333341905611],[],"[[0.041668699999999996, 0.0430461, 0.047526849999999995, 0.05719249999999999, 0.0788785, 0.11234000000000001, 0.144325, 0.20403749999999998, 0.358036, 1.005, 0.2543275, 0.1105665, 0.0748105, 0.057811999999999995, 0.04123585, 0.030726399999999997, 0.026067999999999997, 0.02393615, 0.02333315]]",[0.48333185],"[[0.5, 0.5, 0.5, 0.5]]",[],"[[-90, -45, 0, 45, 90]]",[],[],[],[],[],[],[],[0],[0],[0.5],[0],[0.2857142857142857],[0.5],"[[-90, -45, 0, 45, 90]]",[0]
[0.5014230807405572],[],[],[],[],[],[0.2857142857142857],[],[],[],[0.0955317],[0.5000005143366667],[0.5008333341905611],[],"[[0.041668699999999996, 0.0430461, 0.047526849999999995, 0.05719249999999999, 0.0788785, 0.11234000000000001, 0.144325, 0.20403749999999998, 0.358036, 1.005, 0.2543275, 0.1105665, 0.0748105, 0.057811999999999995, 0.04123585, 0.030726399999999997, 0.026067999999999997, 0.02393615, 0.02333315]]",[0.48333185],"[[0.5, 0.5, 0.5, 0.5]]",[],"[[-90, -45, 0, 45, 90]]",[],[],[],[],[],[],[],[0],[0],[0.5],[0],[0.2857142857142857],[0.5],"[[-90, -45, 0, 45, 90]]",[0]
[0.5014230807405572],[],[],[],[],[],[0.2857142857142857],[],[],[],[0.0955248],[0.5000005143366667],[0.5008333341905611],[],"[[0.041668699999999996, 0.0430461, 0.047526849999999995, 0.05719249999999999, 0.0788785, 0.11234000000000001, 0.144325, 0.20403749999999998, 0.358036, 1.005, 0.2543275, 0.1105665, 0.0748105, 0.057811999999999995, 0.04123585, 0.030726399999999997, 0.026067999999999997, 0.02393615, 0.02333315]]",[0.48333185],"[[0.5, 0.5, 0.5, 0.5]]",[],"[[-90, -45, 0, 45, 90]]",[],[],[],[],[],[],[],[0],[0],[0.5],[0],[0.2857142857142857],[0.5],"[[-90, -45, 0, 45, 90]]",[0]
[0.5014230807405572],[],[],[],[],[],[0.2857142857142857],[],[],[],[0.09551799999999999],[0.5000005143366667],[0.5008333341905611],[],"[[0.041668699999999996, 0.0430461, 0.047526849999999995, 0.05719249999999999, 0.0788785, 0.11234000000000001, 0.144325, 0.20403749999999998, 0.358036, 1.005, 0.2543275, 0.1105665, 0.0748105, 0.057811999999999995, 0.04123585, 0.030726399999999997, 0.026067999999999997, 0.02393615, 0.02333315]]",[0.48333185],"[[0.5, 0.5, 0.5, 0.5]]",[],"[[-90, -45, 0, 45, 90]]",[],[],[],[],[],[],[],[0],[0],[0.5],[0],[0.2857142857142857],[0.5],"[[-90, -45, 0, 45, 90]]",[0]
[0.5014230807405572],[],[],[],[],[],[0.2857142857142857],[],[],[],[0.09551119999999999],[0.5000005143366667],[0.5008333341905611],[],"[[0.041668699999999996, 0.0430461, 0.047526849999999995, 0.05719249999999999, 0.0788785, 0.11234000000000001, 0.144325, 0.20403749999999998, 0.358036, 1.005, 0.2543275, 0.1105665, 0.0748105, 0.057811999999999995, 0.04123585, 0.030726399999999997, 0.026067999999999997, 0.02393615, 0.02333315]]",[0.48333185],"[[0.5, 0.5, 0.5, 0.5]]",[],"[[-90, -45, 0, 45, 90]]",[],[],[],[],[],[],[],[0],[0],[0.5],[0],[0.2857142857142857],[0.5],"[[-90, -45, 0, 45, 90]]",[0]
[0.5014230807405572],[],[],[],[],[],[0.2857142857142857],[],[],[],[0.0955044],[0.5000005143366667],[0.5008333341905611],[],"[[0.041668699999999996, 0.0430461, 0.047526849999999995, 0.05719249999999999, 0.0788785, 0.11234000000000001, 0.144325, 0.20403749999999998, 0.358036, 1.005, 0.2543275, 0.1105665, 0.0748105, 0.057811999999999995, 0.04123585, 0.030726399999999997, 0.026067999999999997, 0.02393615, 0.02333315]]",[0.48333185],"[[0.5, 0.5, 0.5, 0.5]]",[],"[[-90, -45, 0, 45, 90]]",[],[],[],[],[],[],[],[0],[0],[0.5],[0],[0.2857142857142857],[0.5],"[[-90, -45, 0, 45, 90]]",[0]
[0.5014230807405572],[],[],[],[],[],[0.2857142857142857],[],[],[],[0.09549769999999999],[0.5000005143366667],[0.5008333341905611],[],"[[0.041668699999999996, 0.0430461, 0.047526849999999995, 0.05719249999999999, 0.0788785, 0.11234000000000001, 0.144325, 0.20403749999999998, 0.358036, 1.005, 0.2543275, 0.1105665, 0.0748105, 0.057811999999999995, 0.04123585, 0.030726399999999997, 0.026067999999999997, 0.02393615, 0.02333315]]",[0.48333185],"[[0.5, 0.5, 0.5, 0.5]]",[],"[[-90, -45, 0, 45, 90]]",[],[],[],[],[],[],[],[0],[0],[0.5],[0],[0.2857142857142857],[0.5],"[[-90, -45, 0, 45, 90]]",[0]
[0.5014230807405572],[],[],[],[],[],[0.2857142857142857],[],[],[],[0.09549099999999999],[0.5000005143366667],[0.5008333341905611],[],"[[0.041668699999999996, 0.0430461, 0.047526849999999995, 0.05719249999999999, 0.0788785, 0.11234000000000001, 0.144325, 0.20403749999999998, 0.358036, 1.005, 0.2543275, 0.1105665, 0.0748105, 0.057811999999999995, 0.04123585, 0.030726399999999997, 0.026067999999999997, 0.02393615, 0.02333315]]",[0.48333185],"[[0.5, 0.5, 0.5, 0.5]]",[],"[[-90, -45, 0, 45, 90]]",[],[],[],[],[],[],[],[0],[0],[0.5],[0],[0.2857142857142857],[0.5],"[[-90, -45, 0, 45, 90]]",[0]
[0.5014230807405572],[],[],[],[],[],[0.2857142857142857],[],[],[],[0.09548440000000001],[0.5000005143366667],[0.5008333341905611],[],"[[0.041668699999999996, 0.0430461, 0.047526849999999995, 0.05719249999999999, 0.0788785, 0.11234000000000001, 0.144325, 0.20403749999999998, 0.358036, 1.005, 0.2543275, 0.1105665, 0.0748105, 0.057811999999999995, 0.04123585, 0.030726399999999997, 0.026067999999999997, 0.02393615, 0.02333315]]",[0.48333185],"[[0.5, 0.5, 0.5, 0.5]]",[],"[[-90, -45, 0, 45, 90]]",[],[],[],[],[],[],[],[0],[0],[0.5],[0],[0.2857142857142857],[0.5],"[[-90, -45, 0, 45, 90]]",[0]
[0.5014230807405572],[],[],[],[],[],[0.2857142857142857],[],[],[],[0.0954778],[0.5000005143366667],[0.5008333341905611],[],"[[0.041668699999999996, 0.0430461, 0.047526849999999995, 0.05719249999999999, 0.0788785, 0.11234000000000001, 0.144325, 0.20403749999999998, 0.358036, 1.005, 0.2543275, 0.1105665, 0.0748105, 0.057811999999999995, 0.04123585, 0.030726399999999997, 0.026067999999999997, 0.02393615, 0.02333315]]",[0.48333185],"[[0.5, 0.5, 0.5, 0.5]]",[],"[[-90, -45, 0, 45, 90]]",[],[],[],[],[],[],[],[0],[0],[0.5],[0],[0.2857142857142857],[0.5],"[[-90, -45, 0, 45, 90]]",[0]
[0.5014230807405572],[],[],[],[],[],[0.2857142857142857],[],[],[],[0.09547119999999999],[0.5000005143366667],[0.5008333341905611],[],"[[0.041668699999999996, 0.0430461, 0.047526849999999995, 0.05719249999999999, 0.0788785, 0.11234000000000001, 0.144325, 0.20403749999999998, 0.358036, 1.005, 0.2543275, 0.1105665, 0.0748105, 0.057811999999999995, 0.04123585, 0.030726399999999997, 0.026067999999999997, 0.02393615, 0.02333315]]",[0.48333185],"[[0.5, 0.5, 0.5, 0.5]]",[],"[[-90, -45, 0, 45, 90]]",[],[],[],[],[],[],[],[0],[0],[0.5],[0],[0.2857142857142857],[0.5],"[[-90, -45, 0, 45, 90]]",[0]
[0.5014230807405572],[],[],[],[],[],[0.2857142857142857],[],[],[],[0.0954647],[0.5000005143366667],[0.5008333341905611],[],"[[0.041668699999999996, 0.0430461, 0.047526849999999995, 0.05719249999999999, 0.0788785, 0.11234000000000001, 0.144325, 0.20403749999999998, 0.358036, 1.005, 0.2543275, 0.1105665, 0.0748105, 0.057811999999999995, 0.04123585, 0.030726399999999997, 0.026067999999999997, 0.02393615, 0.02333315]]",[0.48333185],"[[0.5, 0.5, 0.5, 0.5]]",[],"[[-90, -45, 0, 45, 90]]",[],[],[],[],[],[],[],[0],[0],[0.5],[0],[0.2857142857142857],[0.5],"[[-90, -45, 0, 45, 90]]",[0]
[0.5014230807405572],[],[],[],[],[],[0.2857142857142857],[],[],[],[0.09545819999999999],[0.5000005143366667],[0.5008333341905611],[],"[[0.041668699999999996, 0.0430461, 0.047526849999999995, 0.05719249999999999, 0.0788785, 0.11234000000000001, 0.144325, 0.20403749999999998, 0.358036, 1.005, 0.2543275, 0.1105665, 0.0748105, 0.057811999999999995, 0.04123585, 0.030726399999999997, 0.026067999999999997, 0.02393615, 0.02333315]]",[0.48333185],"[[0.5, 0.5, 0.5, 0.5]]",[],"[[-90, -45, 0, 45, 90]]",[],[],[],[],[],[],[],[0],[0],[0.5],[0],[0.2857142857142857],[0.5],"[[-90, -45, 0, 45, 90]]",[0]
[0.5014230807405572],[],[],[],[],[],[0.2857142857142857],[],[],[],[0.0954517],[0.5000005143366667],[0.5008333341905611],[],"[[0.041668699999999996, 0.0430461, 0.047526849999999995, 0.05719249999999999, 0.0788785, 0.11234000000000001, 0.144325, 0.20403749999999998, 0.358036, 1.005, 0.2543275, 0.1105665, 0.0748105, 0.057811999999999995, 0.04123585, 0.030726399999999997, 0.026067999999999997, 0.02393615, 0.02333315]]",[0.48333185],"[[0.5, 0.5, 0.5, 0.5]]",[],"[[-90, -45, 0, 45, 90]]",[],[],[],[],[],[],[],[0],[0],[0.5],[0],[0.2857142857142857],[0.5],"[[-90, -45, 0, 45, 90]]",[0]
[0.5014230807405572],[],[],[],[],[],[0.2857142857142857],[],[],[],[0.0954453],[0.5000005143366667],[0.5008333341905611],[],"[[0.041668699999999996, 0.0430461, 0.047526849999999995, 0.05719249999999999, 0.0788785, 0.11234000000000001, 0.144325, 0.20403749999999998, 0.358036, 1.005, 0.2543275, 0.1105665, 0.0748105, 0.057811999999999995, 0.04123585, 0.030726399999999997, 0.026067999999999997, 0.02393615, 0.02333315]]",[0.48333185],"[[0.5, 0.5, 0.5, 0.5]]",[],"[[-90, -45, 0, 45, 90]]",[],[],[],[],[],[],[],[0],[0],[0.5],[0],[0.2857142857142857],[0.5],"[[-90, -45, 0, 45, 90]]",[0]
[0.5015068630856997],[],[],[],[],[],[0.2857142857142857],[],[],[],[0.0954325],[0.5000000109760834],[0.5008333333516268],[],"[[0.04166929999999999, 0.043052349999999996, 0.0475393, 0.05721949999999999, 0.078946, 0.11249050000000001, 0.144575, 0.20455850000000003, 0.3597045, 1.005, 0.252241, 0.1102215, 0.074672, 0.057736499999999996, 0.041205149999999996, 0.030713050000000002, 0.0260621, 0.023933700000000002, 0.02333315]]",[0.48333185],"[[0.5019972333333332, 0.49800845, 0.5032068166666667, 0.4967911]]",[],"[[-90, -45, 0, 45, 90]]",[],[],[],[],[],[],[],[0],[0],[0.5],[0],[0.2857142857142857],[0.5],"[[-90, -45, 0, 45, 90]]",[0]
[0.501550121399232],[],[],[],[],[],[0.2857142857142857],[],[],[],[0.09424779999999999],[0.4999996886116667],[0.5008333328143528],[],"[[0.04166929999999999, 0.04305505, 0.04754645, 0.0572335, 0.07898, 0.11256550000000001, 0.144706, 0.2048295, 0.3605715, 1.005, 0.2512025, 0.110045, 0.074603, 0.057698, 0.0411872, 0.03070675, 0.026058599999999998, 0.02393125, 0.02333315]]",[0.48333185],"[[0.49920176, 0.500802655, 0.49747775, 0.5025170666666667]]",[],"[[-90, -45, 0, 45, 90]]",[],[],[],[],[],[],[],[0],[0],[0.5],[0],[0.2857142857142857],[0.5],"[[-90, -45, 0, 45, 90]]",[0]
[0.5015741792604298],[],[],[],[],[],[0.2857142857142857],[],[],[],[0.09424779999999999],[0.4999994329183334],[0.5008333323881973],[],"[[0.04166929999999999, 0.0430565, 0.0475499, 0.057241499999999994, 0.0789995, 0.11261100000000002, 0.14477700000000002, 0.20498349999999999, 0.361055, 1.005, 0.2506095, 0.109948, 0.0745595, 0.0576745, 0.04117845, 0.030702600000000003, 0.0260573, 0.0239319, 0.02333315]]",[0.48333185],"[[0.5020160833333334, 0.4979875833333333, 0.50251795, 0.49747253333333336]]",[],"[[-90, -45, 0, 45, 90]]",[],[],[],[],[],[],[],[0],[0],[0.5],[0],[0.2857142857142857],[0.5],"[[-90, -45, 0, 45, 90]]",[0]
[0.5015919314027822],[],[],[],[],[],[0.2857142857142857],[],[],[],[0.09424779999999999],[0.4999987861566667],[0.5008333313102611],[],"[[0.041668699999999996, 0.04305845, 0.0475527, 0.0572475, 0.0790125, 0.11264300000000001, 0.1448295, 0.205091, 0.3614095, 1.005, 0.250177, 0.1098815, 0.0745335, 0.0576585, 0.0411722, 0.030699800000000003, 0.02605535, 0.02393125, 0.02333375]]",[0.48333185],"[[0.49918979833333327, 0.5008177733333333, 0.4974771, 0.5025185666666667]]",[],"[[-90, -45, 0, 45, 90]]",[],[],[],[],[],[],[],[0],[0],[0.5],[0],[0.2857142857142857],[0.5],"[[-90, -45, 0, 45, 90]]",[0]
[0.5016074967562166],[],[],[],[],[],[0.2857142857142857],[],[],[],[0.09424779999999999],[0.499998695275],[0.5008333311587917],[],"[[0.0416699, 0.0430589, 0.04755524999999999, 0.057253, 0.07902650000000001, 0.11267049999999999, 0.1448775, 0.20518899999999998, 0.36172, 1.005, 0.249813, 0.10981199999999999, 0.0745095, 0.0576435, 0.04116569999999999, 0.030698, 0.026054200000000003, 0.02393065, 0.02333375]]",[0.48333185],"[[0.5019941333333333, 0.4980101333333333, 0.5025175833333334, 0.4974728]]",[],"[[-90, -45, 0, 45, 90]]",[],[],[],[],[],[],[],[0],[0],[0.5],[0],[0.2857142857142857],[0.5],"[[-90, -45, 0, 45, 90]]",[0]
[0.5016213114052771],[],[],[],[],[],[0.2857142857142857],[],[],[],[0.09424779999999999],[0.4999980821666667],[0.5008333301369444],[],"[[0.041668699999999996, 0.043059599999999996, 0.0475576, 0.057256999999999995, 0.07903800000000001, 0.1126955, 0.1449175, 0.20527650000000003, 0.361999, 1.005, 0.249487, 0.1097585, 0.074487, 0.057632, 0.041159049999999996, 0.030696050000000003, 0.0260533, 0.02392945, 0.02333375]]",[0.48333185],"[[0.4991698033333334, 0.5008399016666667, 0.49747553333333333, 0.5025175833333334]]",[],"[[-90, -45, 0, 45, 90]]",[],[],[],[],[],[],[],[0],[0],[0.5],[0],[0.2857142857142857],[0.5],"[[-90, -45, 0, 45, 90]]",[0]
[0.5016344416880821],[],[],[],[],[],[0.2857142857142857],[],[],[],[0.09424779999999999],[0.4999978760166667],[0.5008333297933611],[],"[[0.04166929999999999, 0.0430607, 0.047559449999999996, 0.057262, 0.0790475, 0.11271850000000001, 0.1449575, 0.20536100000000002, 0.362266, 1.005, 0.249161, 0.1097125, 0.0744625, 0.0576195, 0.04115355, 0.03069285, 0.02605285, 0.02392945, 0.02333375]]",[0.48333185],"[[0.50198, 0.49802901666666666, 0.5025175166666667, 0.4974725833333333]]",[],"[[-90, -45, 0, 45, 90]]",[],[],[],[],[],[],[],[0],[0],[0.5],[0],[0.2857142857142857],[0.5],"[[-90, -45, 0, 45, 90]]",[0]
[0.501646426055297],[],[],[],[],[],[0.2857142857142857],[],[],[],[0.09424779999999999],[0.4999972439333334],[0.5008333287398888],[],"[[0.0416699, 0.043061499999999996, 0.04756145, 0.057266000000000004, 0.0790575, 0.11274150000000001, 0.14499499999999999, 0.20543150000000002, 0.36251350000000004, 1.005, 0.248886, 0.10966150000000001, 0.0744415, 0.057610499999999995, 0.041150099999999995, 0.0306914, 0.02605225, 0.02392945, 0.02333375]]",[0.48333185],"[[0.49915774, 0.5008574183333333, 0.49747614999999995, 0.5025194333333334]]",[],"[[-90, -45, 0, 45, 90]]",[],[],[],[],[],[],[],[0],[0],[0.5],[0],[0.2857142857142857],[0.5],"[[-90, -45, 0, 45, 90]]",[0]
[0.5016580443661426],[],[],[],[],[],[0.2857142857142857],[],[],[],[0.09424779999999999],[0.4999968775166667],[0.5008333281291945],[],"[[0.04166929999999999, 0.0430625, 0.047563549999999996, 0.0572695, 0.07906600000000001, 0.112761, 0.14502700000000002, 0.2055065, 0.36275100000000005, 1.005, 0.2486075, 0.10961000000000001, 0.074423, 0.057598, 0.04114475, 0.0306899, 0.026050900000000002, 0.02392885, 0.02333375]]",[0.48333185],"[[0.50197315, 0.4980440833333334, 0.5025202333333333, 0.49747643333333336]]",[],"[[-90, -45, 0, 45, 90]]",[],[],[],[],[],[],[],[0],[0],[0.5],[0],[0.2857142857142857],[0.5],"[[-90, -45, 0, 45, 90]]",[0]
[0.50166881915579],[],[],[],[],[],[0.2857142857142857],[],[],[],[0.09424779999999999],[0.49999627630000004],[0.5008333271271667],[],"[[0.04166929999999999, 0.043062949999999996, 0.047564, 0.0572735, 0.07907600000000001, 0.112781, 0.14506, 0.2055735, 0.36296700000000004, 1.005, 0.248354, 0.1095685, 0.07440750000000002, 0.0575905, 0.0411412, 0.0306883, 0.02605, 0.0239282, 0.02333375]]",[0.48333185],"[[0.4991531533333333, 0.5008704583333333, 0.49747985, 0.50252285]]",[],"[[-90, -45, 0, 45, 90]]",[],[],[],[],[],[],[],[0],[0],[0.5],[0],[0.2857142857142857],[0.5],"[[-90, -45, 0, 45, 90]]",[0]
[0.5016795143679658],[],[],[],[],[],[0.2857142857142857],[],[],[],[0.09424779999999999],[0.49999584613333337],[0.5008333264102223],[],"[[0.04166929999999999, 0.0430641, 0.047566899999999995, 0.057276999999999995, 0.079085, 0.11280150000000001, 0.1450925, 0.205641, 0.36318649999999997, 1.005, 0.2480915, 0.109523, 0.074388, 0.0575805, 0.041137, 0.03068615, 0.0260491, 0.0239282, 0.02333315]]",[0.48333185],"[[0.5019681666666667, 0.4980579666666667, 0.5025247166666666, 0.4974812833333333]]",[],"[[-90, -45, 0, 45, 90]]",[],[],[],[],[],[],[],[0],[0],[0.5],[0],[0.2857142857142857],[0.5],"[[-90, -45, 0, 45, 90]]",[0]
[0.5016896047913577],[],[],[],[],[],[0.2857142857142857],[],[],[],[0.09424779999999999],[0.49999536008333334],[0.5008333256001389],[],"[[0.04166929999999999, 0.04306455, 0.047568099999999995, 0.05728049999999999, 0.07909200000000001, 0.112819, 0.14512250000000002, 0.205705, 0.3633895, 1.005, 0.247853, 0.109483, 0.07437350000000001, 0.0575725, 0.041133649999999994, 0.0306845, 0.0260481, 0.0239276, 0.02333375]]",[0.48333185],"[[0.499146675, 0.500882675, 0.4974837666666666, 0.5025266]]",[],"[[-90, -45, 0, 45, 90]]",[],[],[],[],[],[],[],[0],[0],[0.5],[0],[0.2857142857142857],[0.5],"[[-90, -45, 0, 45, 90]]",[0]
[0.5017080508492621],[],[],[],[],[],[0.2857142857142857],[],[],[],[0.09424779999999999],[0.49999481495],[0.5008333246915834],[],"[[0.0416699, 0.043066, 0.04757135, 0.057286, 0.07910700000000001, 0.1128505, 0.1451785, 0.205823, 0.3637665, 1.005, 0.24742, 0.10941850000000002, 0.074342, 0.0575555, 0.0411259, 0.03068175, 0.0260475, 0.0239276, 0.02333375]]",[0.48333185],"[[0.5033783166666667, 0.49665485, 0.5025305833333333, 0.4974858333333333]]",[],"[[-90, -45, 0, 45, 90]]",[],[],[],[],[],[],[],[0],[0],[0.5],[0],[0.2857142857142857],[0.5],"[[-90, -45, 0, 45, 90]]",[0]
[0.5017028146516344],[],[],[],[],[],[0.2857142857142857],[],[],[],[0.09424779999999999],[0.499994393],[0.5008333239883334],[],"[[0.04166929999999999, 0.043065, 0.047570499999999995, 0.057285, 0.07910350000000001, 0.11284250000000001, 0.1451625, 0.20579, 0.3636625, 1.005, 0.2475495, 0.1094345, 0.0743515, 0.0575605, 0.04112785, 0.0306819, 0.0260477, 0.023927, 0.02333375]]",[0.48333185],"[[0.4977277, 0.5023078333333334, 0.49748813333333336, 0.5025317]]",[],"[[-90, -45, 0, 45, 90]]",[],[],[],[],[],[],[],[0],[0],[0.5],[0],[0.2857142857142857],[0.5],"[[-90, -45, 0, 45, 90]]",[0]
[0.501727244935399],[],[],[],[],[],[0.2857142857142857],[],[],[],[0.09424779999999999],[0.49999397609999996],[0.5008333232934999],[],"[[0.04166929999999999, 0.0430669, 0.0475745, 0.0572925, 0.079123, 0.11288650000000001, 0.1452375, 0.20594300000000001, 0.3641545, 1.005, 0.2469735, 0.1093385, 0.074314, 0.057537, 0.04111735, 0.0306784, 0.0260459, 0.023927, 0.02333375]]",[0.48333185],"[[0.50337245, 0.49666483333333333, 0.5025330666666666, 0.4974901]]",[],"[[-90, -45, 0, 45, 90]]",[],[],[],[],[],[],[],[0],[0],[0.5],[0],[0.2857142857142857],[0.5],"[[-90, -45, 0, 45, 90]]",[0]
[0.5017217063433794],[],[],[],[],[],[0.2857142857142857],[],[],[],[0.09424779999999999],[0.49999354383333333],[0.5008333225730556],[],"[[0.04166929999999999, 0.043066099999999996, 0.0475731, 0.057290999999999995, 0.07911850000000001, 0.11287649999999999, 0.1452185, 0.2059115, 0.364041, 1.005, 0.247109, 0.1093615, 0.07432100000000001, 0.057541499999999995, 0.041120199999999996, 0.0306792, 0.026046, 0.0239264, 0.02333375]]",[0.48333185],"[[0.49772250000000007, 0.5023173166666667, 0.49749140000000003, 0.5025360666666666]]",[],"[[-90, -45, 0, 45, 90]]",[],[],[],[],[],[],[],[0],[0],[0.5],[0],[0.2857142857142857],[0.5],"[[-90, -45, 0, 45, 90]]",[0]
[0.5017459138102237],[],[],[],[],[],[0.2857142857142857],[],[],[],[0.09424779999999999],[0.49999315365],[0.50083332192275],[],"[[0.04166929999999999, 0.0430676, 0.04757715, 0.057298999999999996, 0.0791385, 0.1129185, 0.145293, 0.20606200000000002, 0.36454749999999997, 1.005, 0.24654050000000002, 0.1092615, 0.0742805, 0.057521, 0.041112649999999994, 0.030674450000000002, 0.02604415, 0.0239264, 0.02333315]]",[0.48333185],"[[0.5033695833333334, 0.4966745, 0.5025365, 0.49749194999999996]]",[],"[[-90, -45, 0, 45, 90]]",[],[],[],[],[],[],[],[0],[0],[0.5],[0],[0.2857142857142857],[0.5],"[[-90, -45, 0, 45, 90]]",[0]
[0.5017402319787553],[],[],[],[],[],[0.2857142857142857],[],[],[],[0.09424779999999999],[0.4999927306333333],[0.5008333212177222],[],"[[0.0416699, 0.0430682, 0.04757575, 0.0572975, 0.0791325, 0.11291100000000001, 0.1452765, 0.206027, 0.36442549999999996, 1.005, 0.246668, 0.109287, 0.07429100000000001, 0.05752399999999999, 0.041112749999999997, 0.0306764, 0.026044800000000003, 0.0239264, 0.02333375]]",[0.48333185],"[[0.4977196, 0.5023290666666667, 0.4974932166666666, 0.5025380166666666]]",[],"[[-90, -45, 0, 45, 90]]",[],[],[],[],[],[],[],[0],[0],[0.5],[0],[0.2857142857142857],[0.5],"[[-90, -45, 0, 45, 90]]",[0]
[0.5017641370512077],[],[],[],[],[],[0.2857142857142857],[],[],[],[0.09424779999999999],[0.49999234926666664],[0.5008333205821112],[],"[[0.0416699, 0.043069249999999996, 0.047580449999999996, 0.057305, 0.079153, 0.112953, 0.145347, 0.206179, 0.364912, 1.005, 0.24610700000000002, 0.10918950000000001, 0.0742525, 0.0575035, 0.0411034, 0.03067285, 0.026042950000000002, 0.0239258, 0.02333375]]",[0.48333185],"[[0.5033626833333333, 0.49668463333333335, 0.5025403166666667, 0.49749623333333337]]",[],"[[-90, -45, 0, 45, 90]]",[],[],[],[],[],[],[],[0],[0],[0.5],[0],[0.2857142857142857],[0.5],"[[-90, -45, 0, 45, 90]]",[0]
[0.5017582960647963],[],[],[],[],[],[0.2857142857142857],[],[],[],[0.09424779999999999],[0.49999189591666665],[0.5008333198265278],[],"[[0.0416699, 0.04306935, 0.0475791, 0.0573015, 0.07914850000000001, 0.1129435, 0.14533300000000002, 0.206144, 0.36479100000000003, 1.005, 0.24625, 0.109217, 0.074258, 0.057507499999999996, 0.0411071, 0.0306736, 0.026044200000000003, 0.0239258, 0.02333375]]",[0.48333185],"[[0.49771445, 0.5023373499999999, 0.4974985, 0.5025428000000001]]",[],"[[-90, -45, 0, 45, 90]]",[],[],[],[],[],[],[],[0],[0],[0.5],[0],[0.2857142857142857],[0.5],"[[-90, -45, 0, 45, 90]]",[0]
[0.5017821215597771],[],[],[],[],[],[0.2857142857142857],[],[],[],[0.09424779999999999],[0.4999914442333333],[0.5008333190737222],[],"[[0.0416699, 0.043071149999999996, 0.04758325, 0.057310999999999994, 0.079167, 0.11298550000000002, 0.145401, 0.2062915, 0.36528700000000003, 1.005, 0.2457, 0.10912000000000001, 0.0742235, 0.057488, 0.04109805, 0.03067005, 0.026041650000000003, 0.02392455, 0.02333375]]",[0.48333185],"[[0.5033618666666666, 0.4966956666666667, 0.5025448333333333, 0.4975006833333333]]",[],"[[-90, -45, 0, 45, 90]]",[],[],[],[],[],[],[],[0],[0],[0.5],[0],[0.2857142857142857],[0.5],"[[-90, -45, 0, 45, 90]]",[0]
[0.5017761214184225],[],[],[],[],[],[0.2857142857142857],[],[],[],[0.09424779999999999],[0.4999910168666667],[0.5008333183614444],[],"[[0.0416699, 0.0430695, 0.0475813, 0.0573085, 0.07916200000000001, 0.11297499999999999, 0.1453855, 0.20625000000000002, 0.36516350000000003, 1.005, 0.245837, 0.10914249999999999, 0.07423350000000001, 0.057495, 0.04110025, 0.0306714, 0.0260423, 0.02392515, 0.02333375]]",[0.48333185],"[[0.4977142833333334, 0.5023479166666667, 0.49750288333333337, 0.5025469166666666]]",[],"[[-90, -45, 0, 45, 90]]",[],[],[],[],[],[],[],[0],[0],[0.5],[0],[0.2857142857142857],[0.5],"[[-90, -45, 0, 45, 90]]",[0]
[0.5017998832514261],[],[],[],[],[],[0.2857142857142857],[],[],[],[0.09424779999999999],[0.49999062354999996],[0.5008333177059167],[],"[[0.0416699, 0.04307195, 0.0475848, 0.057316, 0.0791815, 0.11301850000000001, 0.14545750000000002, 0.206404, 0.365657, 1.005, 0.24528250000000001, 0.1090485, 0.07419150000000001, 0.057470999999999994, 0.04109085, 0.030667200000000002, 0.02604095, 0.02392455, 0.02333375]]",[0.48333185],"[[0.5033611, 0.4967051333333333, 0.5025486, 0.49750433333333327]]",[],"[[-90, -45, 0, 45, 90]]",[],[],[],[],[],[],[],[0],[0],[0.5],[0],[0.2857142857142857],[0.5],"[[-90, -45, 0, 45, 90]]",[0]
[0.5017938035326001],[],[],[],[],[],[0.2857142857142857],[],[],[],[0.09424779999999999],[0.4999901556166666],[0.5008333169260278],[],"[[0.0416699, 0.0430716, 0.04758409999999999, 0.0573145, 0.079177, 0.1130065, 0.14543850000000003, 0.20636700000000002, 0.3655265, 1.005, 0.24542950000000002, 0.1090765, 0.0742015, 0.057477499999999994, 0.04109335, 0.03066735, 0.02604095, 0.02392455, 0.02333435]]",[0.48333185],"[[0.49771538333333337, 0.5023573833333334, 0.4975075666666667, 0.50255085]]",[],"[[-90, -45, 0, 45, 90]]",[],[],[],[],[],[],[],[0],[0],[0.5],[0],[0.2857142857142857],[0.5],"[[-90, -45, 0, 45, 90]]",[0]
[0.5018108808579937],[],[],[],[],[],[0.2857142857142857],[],[],[],[0.09424779999999999],[0.49998974823333336],[0.5008333162470556],[],"[[0.0416699, 0.0430723, 0.04758705, 0.057319, 0.07919050000000001, 0.11303850000000001, 0.145491, 0.20647500000000002, 0.36588000000000004, 1.005, 0.245033, 0.1090035, 0.0741785, 0.0574605, 0.0410879, 0.03066505, 0.026040100000000004, 0.023923950000000003, 0.02333375]]",[0.48333185],"[[0.4991283, 0.50094792, 0.4975105666666667, 0.5025518833333333]]",[],"[[-90, -45, 0, 45, 90]]",[],[],[],[],[],[],[],[0],[0],[0.5],[0],[0.2857142857142857],[0.5],"[[-90, -45, 0, 45, 90]]",[0]
[0.5018197617038184],[],[],[],[],[],[0.2857142857142857],[],[],[],[0.09424779999999999],[0.49998930236666667],[0.5008333155039444],[],"[[0.0416699, 0.0430736, 0.04758845, 0.057324, 0.079197, 0.113055, 0.14551550000000002, 0.206531, 0.3660645, 1.005, 0.2448265, 0.10897000000000001, 0.074161, 0.0574545, 0.041084499999999996, 0.030663950000000002, 0.0260389, 0.023923950000000003, 0.02333435]]",[0.48333185],"[[0.5019499666666667, 0.49813445, 0.5025540666666667, 0.4975119833333333]]",[],"[[-90, -45, 0, 45, 90]]",[],[],[],[],[],[],[],[0],[0],[0.5],[0],[0.2857142857142857],[0.5],"[[-90, -45, 0, 45, 90]]",[0]
[0.5018283401552509],[],[],[],[],[],[0.2857142857142857],[],[],[],[0.09424779999999999],[0.4999889172666667],[0.5008333148621111],[],"[[0.04166929999999999, 0.0430739, 0.0475893, 0.057326499999999996, 0.079204, 0.11306850000000002, 0.14554550000000002, 0.20658449999999998, 0.366244, 1.005, 0.2446265, 0.10893800000000001, 0.0741445, 0.0574475, 0.04107855, 0.0306622, 0.02603815, 0.023923950000000003, 0.02333375]]",[0.48333185],"[[0.49912866, 0.5009596633333334, 0.4975146833333333, 0.5025559833333333]]",[],"[[-90, -45, 0, 45, 90]]",[],[],[],[],[],[],[],[0],[0],[0.5],[0],[0.2857142857142857],[0.5],"[[-90, -45, 0, 45, 90]]",[0]
[0.5018371414236039],[],[],[],[],[],[0.2857142857142857],[],[],[],[0.09424779999999999],[0.4999885154333333],[0.500833314192389],[],"[[0.0416699, 0.0430741, 0.0475907, 0.0573285, 0.079213, 0.1130865, 0.145568, 0.20664349999999998, 0.36642650000000004, 1.005, 0.244419, 0.108902, 0.0741315, 0.0574395, 0.04107665, 0.030660500000000004, 0.0260381, 0.023923350000000003, 0.02333375]]",[0.48333185],"[[0.5019470666666667, 0.49814663333333337, 0.5025579666666666, 0.49751711666666665]]",[],"[[-90, -45, 0, 45, 90]]",[],[],[],[],[],[],[],[0],[0],[0.5],[0],[0.2857142857142857],[0.5],"[[-90, -45, 0, 45, 90]]",[0]
[0.5018455607200935],[],[],[],[],[],[0.2857142857142857],[],[],[],[0.09424779999999999],[0.49998810268333327],[0.5008333135044722],[],"[[0.0416699, 0.043074549999999996, 0.047592800000000005, 0.0573315, 0.07921750000000001, 0.11310100000000001, 0.14559350000000001, 0.20670000000000002, 0.366598, 1.005, 0.24424, 0.108873, 0.0741215, 0.057430999999999996, 0.04107225, 0.030659350000000002, 0.02603675, 0.023923350000000003, 0.02333375]]",[0.48333185],"[[0.4991285266666667, 0.500972565, 0.4975186666666666, 0.5025603166666667]]",[],"[[-90, -45, 0, 45, 90]]",[],[],[],[],[],[],[],[0],[0],[0.5],[0],[0.2857142857142857],[0.5],"[[-90, -45, 0, 45, 90]]",[0]
[0.5018543619884465],[],[],[],[],[],[0.2857142857142857],[],[],[],[0.09424779999999999],[0.49998770698333334],[0.5008333128449722],[],"[[0.0416699, 0.0430754, 0.04759305, 0.0573355, 0.0792265, 0.11311700000000001, 0.14562, 0.20675249999999998, 0.36677950000000004, 1.005, 0.24403350000000001, 0.108837, 0.07410850000000001, 0.057423, 0.041068799999999996, 0.0306576, 0.026036100000000003, 0.02392275, 0.02333375]]",[0.48333185],"[[0.5019519, 0.4981564666666667, 0.50256175, 0.4975205]]",[],"[[-90, -45, 0, 45, 90]]",[],[],[],[],[],[],[],[0],[0],[0.5],[0],[0.2857142857142857],[0.5],"[[-90, -45, 0, 45, 90]]",[0]
[0.5018627972004304],[],[],[],[],[],[0.2857142857142857],[],[],[],[0.09424779999999999],[0.49998726084999995],[0.5008333121014167],[],"[[0.0416699, 0.043076449999999995, 0.04759515, 0.05733799999999999, 0.07923300000000001, 0.11313100000000001, 0.1456445, 0.2068075, 0.36694899999999997, 1.005, 0.243841, 0.10880150000000001, 0.0740905, 0.057418500000000004, 0.0410656, 0.030657700000000003, 0.02603655, 0.0239221, 0.02333375]]",[0.48333185],"[[0.49913317833333337, 0.5009837966666667, 0.49752348333333335, 0.5025640166666666]]",[],"[[-90, -45, 0, 45, 90]]",[],[],[],[],[],[],[],[0],[0],[0.5],[0],[0.2857142857142857],[0.5],"[[-90, -45, 0, 45, 90]]",[0]
[0.5018715188913118],[],[],[],[],[],[0.2857142857142857],[],[],[],[0.09424779999999999],[0.49998692455],[0.5008333115409167],[],"[[0.041670549999999994, 0.043076699999999996, 0.04759655, 0.057339999999999995, 0.0792395, 0.11314750000000001, 0.145675, 0.206861, 0.367133, 1.005, 0.243645, 0.10876899999999999, 0.074077, 0.0574075, 0.04106215, 0.03065595, 0.02603525, 0.02392275, 0.02333375]]",[0.48333185],"[[0.5019506, 0.49816780000000005, 0.5025674666666666, 0.4975257833333333]]",[],"[[-90, -45, 0, 45, 90]]",[],[],[],[],[],[],[],[0],[0],[0.5],[0],[0.2857142857142857],[0.5],"[[-90, -45, 0, 45, 90]]",[0]
[0.5018797949483526],[],[],[],[],[],[0.2857142857142857],[],[],[],[0.09424779999999999],[0.4999864279833333],[0.5008333107133056],[],"[[0.0416699, 0.0430772, 0.04759744999999999, 0.057343, 0.0792465, 0.11316200000000001, 0.14569800000000002, 0.20691199999999998, 0.36731250000000004, 1.005, 0.2434485, 0.10873200000000001, 0.0740645, 0.0574, 0.04105925, 0.030654200000000003, 0.026033900000000002, 0.0239221, 0.02333435]]",[0.48333185],"[[0.4991299033333333, 0.5009973183333333, 0.49753059999999993, 0.5025707333333334]]",[],"[[-90, -45, 0, 45, 90]]",[],[],[],[],[],[],[],[0],[0],[0.5],[0],[0.2857142857142857],[0.5],"[[-90, -45, 0, 45, 90]]",[0]
[0.5018883733997852],[],[],[],[],[],[0.2857142857142857],[],[],[],[0.09424779999999999],[0.49998607228333336],[0.5008333101204722],[],"[[0.041670549999999994, 0.04307754999999999, 0.047598299999999996, 0.057347, 0.079254, 0.1131775, 0.145724, 0.2069705, 0.36749299999999996, 1.005, 0.24326650000000002, 0.10870400000000001, 0.0740505, 0.057393999999999994, 0.0410564, 0.03065305, 0.026033800000000003, 0.023921500000000002, 0.02333375]]",[0.48333185],"[[0.5019505833333333, 0.49818, 0.5025742833333333, 0.4975331833333333]]",[],"[[-90, -45, 0, 45, 90]]",[],[],[],[],[],[],[],[0],[0],[0.5],[0],[0.2857142857142857],[0.5],"[[-90, -45, 0, 45, 90]]",[0]
[0.5018966335413317],[],[],[],[],[],[0.2857142857142857],[],[],[],[0.09424779999999999],[0.49998570963333333],[0.5008333095160555],[],"[[0.041670549999999994, 0.043078799999999993, 0.047600449999999996, 0.057349500000000005, 0.07925900000000001, 0.1131955, 0.1457485, 0.207023, 0.36766800000000005, 1.005, 0.243068, 0.1086715, 0.07404200000000001, 0.05738649999999999, 0.0410535, 0.0306519, 0.0260336, 0.023921500000000002, 0.02333375]]",[0.48333185],"[[0.4991298466666667, 0.5010055916666667, 0.4975366833333334, 0.5025761]]",[],"[[-90, -45, 0, 45, 90]]",[],[],[],[],[],[],[],[0],[0],[0.5],[0],[0.2857142857142857],[0.5],"[[-90, -45, 0, 45, 90]]",[0]
[0.5019051324152928],[],[],[],[],[],[0.2857142857142857],[],[],[],[0.09424779999999999],[0.49998532816666663],[0.5008333088802778],[],"[[0.0416699, 0.043078599999999995, 0.047601950000000004, 0.05735199999999999, 0.079267, 0.1132085, 0.14577400000000001, 0.2070785, 0.367838, 1.005, 0.2428765, 0.1086415, 0.074022, 0.0573775, 0.04105005, 0.030650149999999998, 0.0260329, 0.023920900000000002, 0.02333435]]",[0.48333185],"[[0.5019472, 0.4981912833333333, 0.5025808666666667, 0.4975399833333334]]",[],"[[-90, -45, 0, 45, 90]]",[],[],[],[],[],[],[],[0],[0],[0.5],[0],[0.2857142857142857],[0.5],"[[-90, -45, 0, 45, 90]]",[0]
[0.5019132652328848],[],[],[],[],[],[0.2857142857142857],[],[],[],[0.09424779999999999],[0.4999848735333333],[0.5008333081225556],[],"[[0.0416699, 0.0430799, 0.047602900000000004, 0.057354499999999996, 0.079273, 0.113223, 0.1458025, 0.2071295, 0.3680095, 1.005, 0.24269649999999998, 0.108601, 0.0740085, 0.057369, 0.0410468, 0.030649000000000003, 0.0260321, 0.023920900000000002, 0.02333375]]",[0.48333185],"[[0.49912653666666673, 0.5010197966666666, 0.4975448666666667, 0.5025842333333334]]",[],"[[-90, -45, 0, 45, 90]]",[],[],[],[],[],[],[],[0],[0],[0.5],[0],[0.2857142857142857],[0.5],"[[-90, -45, 0, 45, 90]]",[0]
[0.5019216049519029],[],[],[],[],[],[0.2857142857142857],[],[],[],[0.09424779999999999],[0.4999844637333334],[0.5008333074395556],[],"[[0.0416699, 0.043079849999999996, 0.0476044, 0.0573565, 0.07928, 0.113237, 0.1458255, 0.20718050000000002, 0.36818150000000005, 1.005, 0.2425045, 0.10856700000000001, 0.0739965, 0.057363, 0.04104425, 0.03064845, 0.02603195, 0.023921500000000002, 0.02333435]]",[0.48333185],"[[0.5019463, 0.49820701666666667, 0.5025883833333333, 0.497548]]",[],"[[-90, -45, 0, 45, 90]]",[],[],[],[],[],[],[],[0],[0],[0.5],[0],[0.2857142857142857],[0.5],"[[-90, -45, 0, 45, 90]]",[0]
[0.5019295786145518],[],[],[],[],[],[0.2857142857142857],[],[],[],[0.09424779999999999],[0.49998403503333333],[0.5008333067250555],[],"[[0.0416699, 0.04308005, 0.04760595, 0.057359499999999994, 0.07928650000000001, 0.113253, 0.1458485, 0.20723250000000001, 0.3683515, 1.005, 0.24232700000000001, 0.10854150000000001, 0.07398450000000001, 0.0573575, 0.0410404, 0.030646049999999998, 0.0260311, 0.023920300000000002, 0.02333435]]",[0.48333185],"[[0.49912593166666663, 0.5010329216666667, 0.4975535833333333, 0.5025925666666666]]",[],"[[-90, -45, 0, 45, 90]]",[],[],[],[],[],[],[],[0],[0],[0.5],[0],[0.2857142857142857],[0.5],"[[-90, -45, 0, 45, 90]]",[0]
[0.5019378546715925],[],[],[],[],[],[0.2857142857142857],[],[],[],[0.09424779999999999],[0.499983658],[0.5008333060966667],[],"[[0.041670549999999994, 0.043081249999999995, 0.0476075, 0.0573625, 0.079293, 0.11326850000000001, 0.14587550000000002, 0.20728649999999998, 0.36851700000000004, 1.005, 0.2421415, 0.10851200000000001, 0.07397100000000001, 0.057349, 0.04103725, 0.030645500000000003, 0.02602975, 0.023920300000000002, 0.02333375]]",[0.48333185],"[[0.5019448, 0.49821985, 0.50259645, 0.4975569333333333]]",[],"[[-90, -45, 0, 45, 90]]",[],[],[],[],[],[],[],[0],[0],[0.5],[0],[0.2857142857142857],[0.5],"[[-90, -45, 0, 45, 90]]",[0]
[0.5019456691792983],[],[],[],[],[],[0.2857142857142857],[],[],[],[0.09424779999999999],[0.49998325816666667],[0.5008333054302777],[],"[[0.0416699, 0.04308215, 0.04760849999999999, 0.0573655, 0.07930100000000001, 0.11328200000000001, 0.1458975, 0.207335, 0.368689, 1.005, 0.2419595, 0.1084775, 0.07396200000000001, 0.057343, 0.0410334, 0.030644300000000003, 0.0260295, 0.0239197, 0.02333435]]",[0.48333185],"[[0.4991254233333333, 0.5010473983333333, 0.4975606833333333, 0.5025995999999999]]",[],"[[-90, -45, 0, 45, 90]]",[],[],[],[],[],[],[],[0],[0],[0.5],[0],[0.2857142857142857],[0.5],"[[-90, -45, 0, 45, 90]]",[0]
[0.501953786081396],[],[],[],[],[],[0.2857142857142857],[],[],[],[0.09424779999999999],[0.499982998],[0.5008333049966667],[],"[[0.0416699, 0.04308225, 0.0476088, 0.057368499999999996, 0.079307, 0.11329800000000001, 0.145922, 0.2073865, 0.3688585, 1.005, 0.241788, 0.1084445, 0.07394350000000001, 0.057334500000000004, 0.0410311, 0.03064315, 0.0260287, 0.023920300000000002, 0.02333435]]",[0.48333185],"[[0.50194525, 0.49823096666666666, 0.5026013833333334, 0.4975631833333333]]",[],"[[-90, -45, 0, 45, 90]]",[],[],[],[],[],[],[],[0],[0],[0.5],[0],[0.2857142857142857],[0.5],"[[-90, -45, 0, 45, 90]]",[0]
[0.5019615210116303],[],[],[],[],[],[0.2857142857142857],[],[],[],[0.09424779999999999],[0.4999827078333333],[0.5008333045130555],[],"[[0.041670549999999994, 0.043081999999999995, 0.04761045, 0.0573705, 0.07931250000000001, 0.1133105, 0.145946, 0.20744, 0.3690215, 1.005, 0.2416045, 0.10841850000000001, 0.073931, 0.0573285, 0.04102785, 0.030641349999999998, 0.026028449999999998, 0.0239197, 0.02333375]]",[0.48333185],"[[0.4991244366666667, 0.5010571349999999, 0.49756505000000006, 0.5026038833333333]]",[],"[[-90, -45, 0, 45, 90]]",[],[],[],[],[],[],[],[0],[0],[0.5],[0],[0.2857142857142857],[0.5],"[[-90, -45, 0, 45, 90]]",[0]
[0.5019695742517507],[],[],[],[],[],[0.2857142857142857],[],[],[],[0.09424779999999999],[0.49998242549999994],[0.5008333040424999],[],"[[0.041670549999999994, 0.043083399999999994, 0.047611999999999995, 0.0573735, 0.0793195, 0.113326, 0.14597200000000002, 0.2074915, 0.369193, 1.005, 0.2414275, 0.1083855, 0.073918, 0.057320499999999996, 0.04102555, 0.03064075, 0.026027, 0.02391905, 0.02333435]]",[0.48333185],"[[0.5019431166666667, 0.49824098333333333, 0.5026072833333334, 0.49756843333333334]]",[],"[[-90, -45, 0, 45, 90]]",[],[],[],[],[],[],[],[0],[0],[0.5],[0],[0.2857142857142857],[0.5],"[[-90, -45, 0, 45, 90]]",[0]
[0.5019772296045134],[],[],[],[],[],[0.2857142857142857],[],[],[],[0.09424779999999999],[0.49998212399999997],[0.50083330354],[],"[[0.0416699, 0.04308385, 0.047613649999999993, 0.057375499999999996, 0.07932600000000001, 0.1133405, 0.145995, 0.2075375, 0.369355, 1.005, 0.241255, 0.108355, 0.0739075, 0.057314, 0.041021999999999996, 0.03063835, 0.02602675, 0.02391905, 0.02333435]]",[0.48333185],"[[0.499123395, 0.501066125, 0.4975713, 0.5026098833333333]]",[],"[[-90, -45, 0, 45, 90]]",[],[],[],[],[],[],[],[0],[0],[0.5],[0],[0.2857142857142857],[0.5],"[[-90, -45, 0, 45, 90]]",[0]
[0.5019852032671623],[],[],[],[],[],[0.2857142857142857],[],[],[],[0.09424779999999999],[0.49998188050000003],[0.5008333031341666],[],"[[0.041670549999999994, 0.04308405, 0.04761459999999999, 0.0573785, 0.0793325, 0.1133545, 0.1460195, 0.2075915, 0.36952199999999996, 1.005, 0.2410885, 0.10832649999999999, 0.0738965, 0.05730749999999999, 0.041018149999999996, 0.030637750000000002, 0.0260259, 0.02391905, 0.02333375]]",[0.48333185],"[[0.5019427166666667, 0.4982496333333333, 0.5026123166666666, 0.49757393333333333]]",[],"[[-90, -45, 0, 45, 90]]",[],[],[],[],[],[],[],[0],[0],[0.5],[0],[0.2857142857142857],[0.5],"[[-90, -45, 0, 45, 90]]",[0]
[0.5019928745354193],[],[],[],[],[],[0.2857142857142857],[],[],[],[0.09424779999999999],[0.4999815881666667],[0.5008333026469445],[],"[[0.041670549999999994, 0.043085149999999996, 0.047615649999999995, 0.0573805, 0.079338, 0.11336850000000001, 0.146043, 0.207642, 0.3696855, 1.005, 0.24091, 0.10830000000000001, 0.073884, 0.057299499999999996, 0.041016149999999994, 0.03063595, 0.0260256, 0.02391845, 0.02333375]]",[0.48333185],"[[0.4991225133333333, 0.5010752166666667, 0.49757711666666665, 0.5026147999999999]]",[],"[[-90, -45, 0, 45, 90]]",[],[],[],[],[],[],[],[0],[0],[0.5],[0],[0.2857142857142857],[0.5],"[[-90, -45, 0, 45, 90]]",[0]
[0.5020007686205967],[],[],[],[],[],[0.2857142857142857],[],[],[],[0.09424779999999999],[0.49998137516666663],[0.5008333022919444],[],"[[0.0416699, 0.04308545, 0.04761725, 0.0573835, 0.07934400000000001, 0.11338300000000001, 0.146065, 0.20769300000000002, 0.36985550000000006, 1.005, 0.240733, 0.1082625, 0.073871, 0.0572925, 0.0410135, 0.030635400000000004, 0.026024750000000003, 0.02391845, 0.02333435]]",[0.48333185],"[[0.5019406833333333, 0.4982588333333334, 0.5026172833333333, 0.4975794666666667]]",[],"[[-90, -45, 0, 45, 90]]",[],[],[],[],[],[],[],[0],[0],[0.5],[0],[0.2857142857142857],[0.5],"[[-90, -45, 0, 45, 90]]",[0]
[0.5020082807339107],[],[],[],[],[],[0.2857142857142857],[],[],[],[0.09424779999999999],[0.49998103783333336],[0.5008333017297222],[],"[[0.041670549999999994, 0.043085399999999996, 0.047618299999999995, 0.057386, 0.07935, 0.113395, 0.1460895, 0.20774, 0.370016, 1.005, 0.2405725, 0.108233, 0.07386050000000001, 0.0572865, 0.04100905, 0.030633550000000002, 0.02602445, 0.02391785, 0.02333375]]",[0.48333185],"[[0.49912318499999997, 0.5010847549999999, 0.4975826666666667, 0.5026202166666667]]",[],"[[-90, -45, 0, 45, 90]]",[],[],[],[],[],[],[],[0],[0],[0.5],[0],[0.2857142857142857],[0.5],"[[-90, -45, 0, 45, 90]]",[0]
